{"100":{"city":"臺北市","town":"中正區","lat":25.0443212,"lng":121.5247613},"103":{"city":"臺北市","town":"大同區","lat":25.0661934,"lng":121.515268},"104":{"city":"臺北市","town":"中山區","lat":25.0642771,"lng":121.5335776},"105":{"city":"臺北市","town":"松山區","lat":25.049847,"lng":121.577241},"106":{"city":"臺北市","town":"大安區","lat":25.02642,"lng":121.534511},"108":{"city":"臺北市","town":"萬華區","lat":25.034839,"lng":121.4997957},"110":{"city":"臺北市","town":"信義區","lat":25.0331574,"lng":121.5668777},"111":{"city":"臺北市","town":"士林區","lat":25.0927548,"lng":121.519565},"112":{"city":"臺北市","town":"北投區","lat":25.1323666,"lng":121.5029268},"114":{"city":"臺北市","town":"內湖區","lat":25.06929,"lng":121.588949},"115":{"city":"臺北市","town":"南港區","lat":25.0547059,"lng":121.6066929},"116":{"city":"臺北市","town":"文山區","lat":24.98964,"lng":121.5700826},"200":{"city":"基隆市","town":"仁愛區","lat":25.125069,"lng":121.736754},"201":{"city":"基隆市","town":"信義區","lat":25.1294717,"lng":121.7512671},"202":{"city":"基隆市","town":"中正區","lat":25.1407924,"lng":121.7592534},"203":{"city":"基隆市","town":"中山區","lat":25.152899,"lng":121.729552},"204":{"city":"基隆市","town":"安樂區","lat":25.121176,"lng":121.7230804},"205":{"city":"基隆市","town":"暖暖區","lat":25.1001834,"lng":121.735933},"206":{"city":"基隆市","town":"七堵區","lat":25.097653,"lng":121.7165013},"207":{"city":"新北市","town":"萬里區","lat":25.178066,"lng":121.689548},"208":{"city":"新北市","town":"金山區","lat":25.222241,"lng":121.636629},"209":{"city":"連江縣","town":"南竿鄉","lat":26.1529312,"lng":119.9387995},"210":{"city":"連江縣","town":"北竿鄉","lat":26.223938,"lng":119.997139},"211":{"city":"連江縣","town":"莒光鄉","lat":25.9687384,"lng":119.9369689},"212":{"city":"連江縣","town":"東引鄉","lat":26.3672636,"lng":120.4898789},"220":{"city":"新北市","town":"板橋區","lat":25.0096156,"lng":121.4592358},"221":{"city":"新北市","town":"汐止區","lat":25.064261,"lng":121.65869},"222":{"city":"新北市","town":"深坑區","lat":25.0025007,"lng":121.615944},"223":{"city":"新北市","town":"石碇區","lat":24.9914859,"lng":121.6579019},"224":{"city":"新北市","town":"瑞芳區","lat":25.1087635,"lng":121.8098935},"226":{"city":"新北市","town":"平溪區","lat":25.026689,"lng":121.73819},"227":{"city":"新北市","town":"雙溪區","lat":25.0337322,"lng":121.8657341},"228":{"city":"新北市","town":"貢寮區","lat":25.021812,"lng":121.910293},"231":{"city":"新北市","town":"新店區","lat":24.9749713,"lng":121.5431673},"232":{"city":"新北市","town":"坪林區","lat":24.9361367,"lng":121.7117653},"233":{"city":"新北市","town":"烏來區","lat":24.8717802,"lng":121.5478634},"234":{"city":"新北市","town":"永和區","lat":25.0091768,"lng":121.5202731},"235":{"city":"新北市","town":"中和區","lat":24.9985208,"lng":121.5007413},"236":{"city":"新北市","town":"土城區","lat":24.9723361,"lng":121.4429389},"237":{"city":"新北市","town":"三峽區","lat":24.9341863,"lng":121.369083},"238":{"city":"新北市","town":"樹林區","lat":24.9899673,"lng":121.4246321},"239":{"city":"新北市","town":"鶯歌區","lat":24.9560294,"lng":121.3544312},"241":{"city":"新北市","town":"三重區","lat":25.0607692,"lng":121.4884178},"242":{"city":"新北市","town":"新莊區","lat":25.035976,"lng":121.450478},"243":{"city":"新北市","town":"泰山區","lat":25.059291,"lng":121.431495},"244":{"city":"新北市","town":"林口區","lat":25.0768252,"lng":121.3886134},"247":{"city":"新北市","town":"蘆洲區","lat":25.0847112,"lng":121.4737354},"248":{"city":"新北市","town":"五股區","lat":25.0830393,"lng":121.4380781},"249":{"city":"新北市","town":"八里區","lat":25.1537592,"lng":121.4064305},"251":{"city":"新北市","town":"淡水區","lat":25.1696463,"lng":121.4409722},"252":{"city":"新北市","town":"三芝區","lat":25.257748,"lng":121.5009345},"253":{"city":"新北市","town":"石門區","lat":25.291248,"lng":121.567631},"260":{"city":"宜蘭縣","town":"宜蘭市","lat":24.7520373,"lng":121.7531493},"261":{"city":"宜蘭縣","town":"頭城鎮","lat":24.8548387,"lng":121.8213189},"262":{"city":"宜蘭縣","town":"礁溪鄉","lat":24.8234257,"lng":121.7711725},"263":{"city":"宜蘭縣","town":"壯圍鄉","lat":24.746832,"lng":121.785759},"264":{"city":"宜蘭縣","town":"員山鄉","lat":24.7433944,"lng":121.7232538},"265":{"city":"宜蘭縣","town":"羅東鎮","lat":24.6769245,"lng":121.7669529},"266":{"city":"宜蘭縣","town":"三星鄉","lat":24.665483,"lng":121.654047},"267":{"city":"宜蘭縣","town":"大同鄉","lat":24.677412,"lng":121.6090927},"268":{"city":"宜蘭縣","town":"五結鄉","lat":24.684772,"lng":121.7982898},"269":{"city":"宜蘭縣","town":"冬山鄉","lat":24.634338,"lng":121.792851},"270":{"city":"宜蘭縣","town":"蘇澳鎮","lat":24.594315,"lng":121.8421903},"272":{"city":"宜蘭縣","town":"南澳鄉","lat":24.465996,"lng":121.803714},"300":{"city":"新竹市","town":"香山區","lat":24.7940445,"lng":120.9422678},"301":{"city":"新竹市","town":"東區","lat":24.8051881,"lng":120.9732327},"302":{"city":"新竹縣","town":"竹北市","lat":24.8395807,"lng":121.0040235},"303":{"city":"新竹縣","town":"湖口鄉","lat":24.9010068,"lng":121.0478749},"304":{"city":"新竹縣","town":"新豐鄉","lat":24.9007026,"lng":120.9852313},"305":{"city":"新竹縣","town":"新埔鎮","lat":24.8256201,"lng":121.0740799},"306":{"city":"新竹縣","town":"關西鎮","lat":24.7922806,"lng":121.1759547},"307":{"city":"新竹縣","town":"芎林鄉","lat":24.773309,"lng":121.081855},"308":{"city":"新竹縣","town":"寶山鄉","lat":24.7654715,"lng":120.9913066},"310":{"city":"新竹縣","town":"竹東鎮","lat":24.7366942,"lng":121.0916513},"311":{"city":"新竹縣","town":"五峰鄉","lat":24.6320786,"lng":121.119596},"312":{"city":"新竹縣","town":"橫山鄉","lat":24.7167807,"lng":121.1414985},"313":{"city":"新竹縣","town":"尖石鄉","lat":24.705004,"lng":121.2020864},"314":{"city":"新竹縣","town":"北埔鄉","lat":24.7019901,"lng":121.0563354},"315":{"city":"新竹縣","town":"峨眉鄉","lat":24.6887921,"lng":121.0195946},"320":{"city":"桃園市","town":"中壢區","lat":24.9656124,"lng":121.2249927},"324":{"city":"桃園市","town":"平鎮區","lat":24.9456694,"lng":121.2181884},"325":{"city":"桃園市","town":"龍潭區","lat":24.8704855,"lng":121.2224472},"326":{"city":"桃園市","town":"楊梅區","lat":24.9128508,"lng":121.1444587},"327":{"city":"桃園市","town":"新屋區","lat":24.9725439,"lng":121.105533},"328":{"city":"桃園市","town":"觀音區","lat":25.0276516,"lng":121.0836028},"330":{"city":"桃園市","town":"桃園區","lat":24.993919,"lng":121.3016657},"333":{"city":"桃園市","town":"龜山區","lat":24.9925139,"lng":121.337824},"334":{"city":"桃園市","town":"八德區","lat":24.9289862,"lng":121.2846406},"335":{"city":"桃園市","town":"大溪區","lat":24.880548,"lng":121.287142},"336":{"city":"桃園市","town":"復興區","lat":24.8147989,"lng":121.3511305},"337":{"city":"桃園市","town":"大園區","lat":25.0638556,"lng":121.1954603},"338":{"city":"桃園市","town":"蘆竹區","lat":25.046925,"lng":121.295077},"350":{"city":"苗栗縣","town":"竹南鎮","lat":24.6838448,"lng":120.8733503},"351":{"city":"苗栗縣","town":"頭份市","lat":24.6865276,"lng":120.9132454},"352":{"city":"苗栗縣","town":"三灣鄉","lat":24.6531425,"lng":120.9566265},"353":{"city":"苗栗縣","town":"南庄鄉","lat":24.5970648,"lng":121.000339},"354":{"city":"苗栗縣","town":"獅潭鄉","lat":24.539419,"lng":120.920496},"356":{"city":"苗栗縣","town":"後龍鎮","lat":24.613682,"lng":120.792046},"357":{"city":"苗栗縣","town":"通霄鎮","lat":24.4912805,"lng":120.684249},"358":{"city":"苗栗縣","town":"苑裡鎮","lat":24.4396522,"lng":120.653261},"360":{"city":"苗栗縣","town":"苗栗市","lat":24.5616772,"lng":120.8190175},"361":{"city":"苗栗縣","town":"造橋鄉","lat":24.638552,"lng":120.8651632},"362":{"city":"苗栗縣","town":"頭屋鄉","lat":24.5778158,"lng":120.8511057},"363":{"city":"苗栗縣","town":"公館鄉","lat":24.5058646,"lng":120.8284935},"364":{"city":"苗栗縣","town":"大湖鄉","lat":24.4234081,"lng":120.8661781},"365":{"city":"苗栗縣","town":"泰安鄉","lat":24.4471976,"lng":120.9081718},"366":{"city":"苗栗縣","town":"銅鑼鄉","lat":24.4870514,"lng":120.7878718},"367":{"city":"苗栗縣","town":"三義鄉","lat":24.4129179,"lng":120.7702392},"368":{"city":"苗栗縣","town":"西湖鄉","lat":24.5567613,"lng":120.7570814},"369":{"city":"苗栗縣","town":"卓蘭鎮","lat":24.3130501,"lng":120.8245152},"400":{"city":"臺中市","town":"中區","lat":24.1439458,"lng":120.6794414},"401":{"city":"臺中市","town":"東區","lat":24.1366469,"lng":120.7037332},"402":{"city":"臺中市","town":"南區","lat":24.1171412,"lng":120.6635905},"403":{"city":"臺中市","town":"西區","lat":24.1413252,"lng":120.6710753},"404":{"city":"臺中市","town":"北區","lat":24.1658534,"lng":120.6822936},"406":{"city":"臺中市","town":"北屯區","lat":24.1826848,"lng":120.686403},"407":{"city":"臺中市","town":"西屯區","lat":24.1658213,"lng":120.6336717},"408":{"city":"臺中市","town":"南屯區","lat":24.1345298,"lng":120.6442903},"411":{"city":"臺中市","town":"太平區","lat":24.1266572,"lng":120.7185562},"412":{"city":"臺中市","town":"大里區","lat":24.0994693,"lng":120.6778413},"413":{"city":"臺中市","town":"霧峰區","lat":24.0613153,"lng":120.7000868},"414":{"city":"臺中市","town":"烏日區","lat":24.104605,"lng":120.6238467},"420":{"city":"臺中市","town":"豐原區","lat":24.2419087,"lng":120.7181281},"421":{"city":"臺中市","town":"后里區","lat":24.3049377,"lng":120.7107454},"422":{"city":"臺中市","town":"石岡區","lat":24.274898,"lng":120.7803458},"423":{"city":"臺中市","town":"東勢區","lat":24.2585728,"lng":120.8279546},"424":{"city":"臺中市","town":"和平區","lat":24.1752225,"lng":120.8835809},"426":{"city":"臺中市","town":"新社區","lat":24.233957,"lng":120.809416},"427":{"city":"臺中市","town":"潭子區","lat":24.2031708,"lng":120.7228978},"428":{"city":"臺中市","town":"大雅區","lat":24.2291463,"lng":120.6478436},"429":{"city":"臺中市","town":"神岡區","lat":24.2579749,"lng":120.6614216},"432":{"city":"臺中市","town":"大肚區","lat":24.1511295,"lng":120.5457643},"433":{"city":"臺中市","town":"沙鹿區","lat":24.2333313,"lng":120.566317},"434":{"city":"臺中市","town":"龍井區","lat":24.1924488,"lng":120.5457999},"435":{"city":"臺中市","town":"梧棲區","lat":24.2549063,"lng":120.5317002},"436":{"city":"臺中市","town":"清水區","lat":24.2681562,"lng":120.559717},"437":{"city":"臺中市","town":"大甲區","lat":24.349083,"lng":120.622468},"438":{"city":"臺中市","town":"外埔區","lat":24.3321248,"lng":120.654334},"439":{"city":"臺中市","town":"大安區","lat":24.346126,"lng":120.5866075},"500":{"city":"彰化縣","town":"彰化市","lat":24.0809056,"lng":120.5422565},"502":{"city":"彰化縣","town":"芬園鄉","lat":24.013628,"lng":120.628964},"503":{"city":"彰化縣","town":"花壇鄉","lat":24.0296582,"lng":120.5382578},"504":{"city":"彰化縣","town":"秀水鄉","lat":24.035321,"lng":120.5028098},"505":{"city":"彰化縣","town":"鹿港鎮","lat":24.0572566,"lng":120.4350548},"506":{"city":"彰化縣","town":"福興鄉","lat":24.0478713,"lng":120.4439546},"507":{"city":"彰化縣","town":"線西鄉","lat":24.1306678,"lng":120.470656},"508":{"city":"彰化縣","town":"和美鎮","lat":24.1085584,"lng":120.4941497},"509":{"city":"彰化縣","town":"伸港鄉","lat":24.1596067,"lng":120.4861141},"510":{"city":"彰化縣","town":"員林市","lat":23.9589162,"lng":120.5743943},"511":{"city":"彰化縣","town":"社頭鄉","lat":23.8968186,"lng":120.5858074},"512":{"city":"彰化縣","town":"永靖鄉","lat":23.9245962,"lng":120.5477204},"513":{"city":"彰化縣","town":"埔心鄉","lat":23.952988,"lng":120.54354},"514":{"city":"彰化縣","town":"溪湖鎮","lat":23.9664245,"lng":120.4832787},"515":{"city":"彰化縣","town":"大村鄉","lat":23.9934239,"lng":120.547268},"516":{"city":"彰化縣","town":"埔鹽鄉","lat":24.000442,"lng":120.4636578},"520":{"city":"彰化縣","town":"田中鎮","lat":23.8614831,"lng":120.5809585},"521":{"city":"彰化縣","town":"北斗鎮","lat":23.8713826,"lng":120.5218625},"522":{"city":"彰化縣","town":"田尾鄉","lat":23.8922407,"lng":120.5259709},"523":{"city":"彰化縣","town":"埤頭鄉","lat":23.8914618,"lng":120.4621725},"524":{"city":"彰化縣","town":"溪州鄉","lat":23.8516188,"lng":120.498976},"525":{"city":"彰化縣","town":"竹塘鄉","lat":23.8605045,"lng":120.4277961},"526":{"city":"彰化縣","town":"二林鎮","lat":23.8998045,"lng":120.3742654},"527":{"city":"彰化縣","town":"大城鄉","lat":23.852314,"lng":120.3208972},"528":{"city":"彰化縣","town":"芳苑鄉","lat":23.924354,"lng":120.320389},"530":{"city":"彰化縣","town":"二水鄉","lat":23.8066858,"lng":120.6190203},"540":{"city":"南投縣","town":"南投市","lat":23.9116414,"lng":120.6874199},"541":{"city":"南投縣","town":"中寮鄉","lat":23.8790067,"lng":120.7660301},"542":{"city":"南投縣","town":"草屯鎮","lat":23.9736845,"lng":120.6802819},"544":{"city":"南投縣","town":"國姓鄉","lat":24.040019,"lng":120.8575192},"545":{"city":"南投縣","town":"埔里鎮","lat":23.9665377,"lng":120.9691809},"546":{"city":"南投縣","town":"仁愛鄉","lat":24.021544,"lng":121.1320616},"551":{"city":"南投縣","town":"名間鄉","lat":23.8382161,"lng":120.702985},"552":{"city":"南投縣","town":"集集鎮","lat":23.8283683,"lng":120.7864885},"553":{"city":"南投縣","town":"水里鄉","lat":23.8113991,"lng":120.8560852},"555":{"city":"南投縣","town":"魚池鄉","lat":23.8957849,"lng":120.9356849},"556":{"city":"南投縣","town":"信義鄉","lat":23.696797,"lng":120.854557},"557":{"city":"南投縣","town":"竹山鎮","lat":23.7578635,"lng":120.6716995},"558":{"city":"南投縣","town":"鹿谷鄉","lat":23.7458415,"lng":120.7534428},"600":{"city":"嘉義市","town":"東區","lat":23.4786578,"lng":120.4534596},"601":{"city":"嘉義市","town":"西區","lat":23.4646967,"lng":120.4352822},"602":{"city":"嘉義縣","town":"番路鄉","lat":23.4644973,"lng":120.554286},"603":{"city":"嘉義縣","town":"梅山鄉","lat":23.5850678,"lng":120.5554676},"604":{"city":"嘉義縣","town":"竹崎鄉","lat":23.5230788,"lng":120.5513988},"605":{"city":"嘉義縣","town":"阿里山鄉","lat":23.4712117,"lng":120.7135217},"606":{"city":"嘉義縣","town":"中埔鄉","lat":23.425139,"lng":120.522952},"607":{"city":"嘉義縣","town":"大埔鄉","lat":23.2986941,"lng":120.5869311},"608":{"city":"嘉義縣","town":"水上鄉","lat":23.428531,"lng":120.398035},"611":{"city":"嘉義縣","town":"鹿草鄉","lat":23.4113835,"lng":120.3082682},"612":{"city":"嘉義縣","town":"太保市","lat":23.458967,"lng":120.3323479},"613":{"city":"嘉義縣","town":"朴子市","lat":23.4575288,"lng":120.2459226},"614":{"city":"嘉義縣","town":"東石鄉","lat":23.4587147,"lng":120.1537883},"615":{"city":"嘉義縣","town":"六腳鄉","lat":23.4940922,"lng":120.2907962},"616":{"city":"嘉義縣","town":"新港鄉","lat":23.5519744,"lng":120.3478039},"621":{"city":"嘉義縣","town":"民雄鄉","lat":23.5516417,"lng":120.4283616},"622":{"city":"嘉義縣","town":"大林鎮","lat":23.603931,"lng":120.471178},"623":{"city":"嘉義縣","town":"溪口鄉","lat":23.6025304,"lng":120.392323},"624":{"city":"嘉義縣","town":"義竹鄉","lat":23.3361064,"lng":120.2430475},"625":{"city":"嘉義縣","town":"布袋鎮","lat":23.3781734,"lng":120.1669564},"630":{"city":"雲林縣","town":"斗南鎮","lat":23.680105,"lng":120.47772},"631":{"city":"雲林縣","town":"大埤鄉","lat":23.6460343,"lng":120.4314818},"632":{"city":"雲林縣","town":"虎尾鎮","lat":23.7083539,"lng":120.4451923},"633":{"city":"雲林縣","town":"土庫鎮","lat":23.6820621,"lng":120.3899062},"634":{"city":"雲林縣","town":"褒忠鄉","lat":23.691007,"lng":120.3037335},"635":{"city":"雲林縣","town":"東勢鄉","lat":23.6753034,"lng":120.2525936},"636":{"city":"雲林縣","town":"臺西鄉","lat":23.700477,"lng":120.1957632},"637":{"city":"雲林縣","town":"崙背鄉","lat":23.7619087,"lng":120.3591424},"638":{"city":"雲林縣","town":"麥寮鄉","lat":23.7539853,"lng":120.2513078},"640":{"city":"雲林縣","town":"斗六市","lat":23.6971143,"lng":120.5269987},"643":{"city":"雲林縣","town":"林內鄉","lat":23.7562156,"lng":120.6129427},"646":{"city":"雲林縣","town":"古坑鄉","lat":23.6426312,"lng":120.5619595},"647":{"city":"雲林縣","town":"莿桐鄉","lat":23.7610077,"lng":120.5025072},"648":{"city":"雲林縣","town":"西螺鎮","lat":23.7977736,"lng":120.465685},"649":{"city":"雲林縣","town":"二崙鄉","lat":23.7711012,"lng":120.4129596},"651":{"city":"雲林縣","town":"北港鎮","lat":23.5759236,"lng":120.302446},"652":{"city":"雲林縣","town":"水林鄉","lat":23.5727035,"lng":120.2459507},"653":{"city":"雲林縣","town":"口湖鄉","lat":23.5827378,"lng":120.1858552},"654":{"city":"雲林縣","town":"四湖鄉","lat":23.6378317,"lng":120.2242949},"655":{"city":"雲林縣","town":"元長鄉","lat":23.6497447,"lng":120.3148349},"700":{"city":"臺南市","town":"中西區","lat":22.9922364,"lng":120.2056571},"701":{"city":"臺南市","town":"東區","lat":22.9802421,"lng":120.224004},"702":{"city":"臺南市","town":"南區","lat":22.9611326,"lng":120.1885687},"704":{"city":"臺南市","town":"北區","lat":22.9997522,"lng":120.2030341},"708":{"city":"臺南市","town":"安平區","lat":22.9945789,"lng":120.1688523},"709":{"city":"臺南市","town":"安南區","lat":23.0472321,"lng":120.184714},"710":{"city":"臺南市","town":"永康區","lat":23.0260699,"lng":120.2570647},"711":{"city":"臺南市","town":"歸仁區","lat":22.967286,"lng":120.2940045},"712":{"city":"臺南市","town":"新化區","lat":23.0385411,"lng":120.310896},"713":{"city":"臺南市","town":"左鎮區","lat":23.0567783,"lng":120.408708},"714":{"city":"臺南市","town":"玉井區","lat":23.1237866,"lng":120.4601109},"715":{"city":"臺南市","town":"楠西區","lat":23.174143,"lng":120.486337},"716":{"city":"臺南市","town":"南化區","lat":23.042988,"lng":120.477816},"717":{"city":"臺南市","town":"仁德區","lat":22.97243,"lng":120.251685},"718":{"city":"臺南市","town":"關廟區","lat":22.9630039,"lng":120.3278144},"719":{"city":"臺南市","town":"龍崎區","lat":22.9632926,"lng":120.3649712},"720":{"city":"臺南市","town":"官田區","lat":23.1930442,"lng":120.3154967},"721":{"city":"臺南市","town":"麻豆區","lat":23.1849449,"lng":120.2584456},"722":{"city":"臺南市","town":"佳里區","lat":23.1652648,"lng":120.1770306},"723":{"city":"臺南市","town":"西港區","lat":23.1229825,"lng":120.203413},"724":{"city":"臺南市","town":"七股區","lat":23.1403809,"lng":120.1391359},"725":{"city":"臺南市","town":"將軍區","lat":23.19905,"lng":120.158702},"726":{"city":"臺南市","town":"學甲區","lat":23.2304835,"lng":120.1822926},"727":{"city":"臺南市","town":"北門區","lat":23.267723,"lng":120.125445},"730":{"city":"臺南市","town":"新營區","lat":23.3101426,"lng":120.3167031},"731":{"city":"臺南市","town":"後壁區","lat":23.3659836,"lng":120.3619362},"732":{"city":"臺南市","town":"白河區","lat":23.3512886,"lng":120.415752},"733":{"city":"臺南市","town":"東山區","lat":23.3261625,"lng":120.4045009},"734":{"city":"臺南市","town":"六甲區","lat":23.2318098,"lng":120.3474201},"735":{"city":"臺南市","town":"下營區","lat":23.2356921,"lng":120.2643838},"736":{"city":"臺南市","town":"柳營區","lat":23.278395,"lng":120.311673},"737":{"city":"臺南市","town":"鹽水區","lat":23.320027,"lng":120.266097},"741":{"city":"臺南市","town":"善化區","lat":23.1324288,"lng":120.2967849},"742":{"city":"臺南市","town":"大內區","lat":23.1192073,"lng":120.3568212},"743":{"city":"臺南市","town":"山上區","lat":23.1036173,"lng":120.3526487},"744":{"city":"臺南市","town":"新市區","lat":23.0789967,"lng":120.2951827},"745":{"city":"臺南市","town":"安定區","lat":23.121593,"lng":120.237118},"800":{"city":"高雄市","town":"新興區","lat":22.6310347,"lng":120.3101095},"801":{"city":"高雄市","town":"前金區","lat":22.6275276,"lng":120.2942181},"802":{"city":"高雄市","town":"苓雅區","lat":22.621759,"lng":120.312194},"803":{"city":"高雄市","town":"鹽埕區","lat":22.6247166,"lng":120.2868098},"804":{"city":"高雄市","town":"鼓山區","lat":22.636776,"lng":120.2809626},"805":{"city":"高雄市","town":"旗津區","lat":22.5900263,"lng":120.28471},"806":{"city":"高雄市","town":"前鎮區","lat":22.5865658,"lng":120.318307},"807":{"city":"高雄市","town":"三民區","lat":22.647684,"lng":120.299851},"811":{"city":"高雄市","town":"楠梓區","lat":22.7283655,"lng":120.3263681},"812":{"city":"高雄市","town":"小港區","lat":22.5652134,"lng":120.3380368},"813":{"city":"高雄市","town":"左營區","lat":22.6899834,"lng":120.2950135},"814":{"city":"高雄市","town":"仁武區","lat":22.7013806,"lng":120.3479837},"815":{"city":"高雄市","town":"大社區","lat":22.730156,"lng":120.346671},"820":{"city":"高雄市","town":"岡山區","lat":22.7974649,"lng":120.2950724},"821":{"city":"高雄市","town":"路竹區","lat":22.8547435,"lng":120.2592442},"822":{"city":"高雄市","town":"阿蓮區","lat":22.8832024,"lng":120.3274131},"823":{"city":"高雄市","town":"田寮區","lat":22.8698825,"lng":120.3594334},"824":{"city":"高雄市","town":"燕巢區","lat":22.7881575,"lng":120.3619685},"825":{"city":"高雄市","town":"橋頭區","lat":22.757591,"lng":120.305809},"826":{"city":"高雄市","town":"梓官區","lat":22.7606303,"lng":120.2671523},"827":{"city":"高雄市","town":"彌陀區","lat":22.7814893,"lng":120.2507011},"828":{"city":"高雄市","town":"永安區","lat":22.818298,"lng":120.224189},"829":{"city":"高雄市","town":"湖內區","lat":22.9083136,"lng":120.211713},"830":{"city":"高雄市","town":"鳳山區","lat":22.627075,"lng":120.362525},"831":{"city":"高雄市","town":"大寮區","lat":22.6055196,"lng":120.3956199},"832":{"city":"高雄市","town":"林園區","lat":22.5129453,"lng":120.3946805},"833":{"city":"高雄市","town":"鳥松區","lat":22.6598339,"lng":120.364363},"840":{"city":"高雄市","town":"大樹區","lat":22.6839054,"lng":120.4143416},"842":{"city":"高雄市","town":"旗山區","lat":22.888642,"lng":120.48349},"843":{"city":"高雄市","town":"美濃區","lat":22.8947952,"lng":120.5419493},"844":{"city":"高雄市","town":"六龜區","lat":22.9984391,"lng":120.6327082},"845":{"city":"高雄市","town":"內門區","lat":22.9428391,"lng":120.462606},"846":{"city":"高雄市","town":"杉林區","lat":22.9717391,"lng":120.540058},"847":{"city":"高雄市","town":"甲仙區","lat":23.0839058,"lng":120.587695},"848":{"city":"高雄市","town":"桃源區","lat":23.1592827,"lng":120.7641372},"849":{"city":"高雄市","town":"那瑪夏區","lat":23.277092,"lng":120.720243},"851":{"city":"高雄市","town":"茂林區","lat":22.886187,"lng":120.663266},"852":{"city":"高雄市","town":"茄萣區","lat":22.9065231,"lng":120.1824729},"880":{"city":"澎湖縣","town":"馬公市","lat":23.566159,"lng":119.578692},"881":{"city":"澎湖縣","town":"西嶼鄉","lat":23.601088,"lng":119.5069847},"882":{"city":"澎湖縣","town":"望安鄉","lat":23.3576577,"lng":119.500894},"883":{"city":"澎湖縣","town":"七美鄉","lat":23.2067107,"lng":119.4244825},"884":{"city":"澎湖縣","town":"白沙鄉","lat":23.666538,"lng":119.598639},"885":{"city":"澎湖縣","town":"湖西鄉","lat":23.584072,"lng":119.6528318},"890":{"city":"金門縣","town":"金沙鎮","lat":24.488898,"lng":118.413132},"891":{"city":"金門縣","town":"金湖鎮","lat":24.4414641,"lng":118.4171018},"892":{"city":"金門縣","town":"金寧鄉","lat":24.450966,"lng":118.334887},"893":{"city":"金門縣","town":"金城鎮","lat":24.432824,"lng":118.320697},"894":{"city":"金門縣","town":"烈嶼鄉","lat":24.4295409,"lng":118.2445892},"896":{"city":"金門縣","town":"烏坵鄉","lat":24.9887062,"lng":119.4531826},"900":{"city":"屏東縣","town":"屏東市","lat":22.662498,"lng":120.4914295},"901":{"city":"屏東縣","town":"三地門鄉","lat":22.7162015,"lng":120.6541301},"902":{"city":"屏東縣","town":"霧臺鄉","lat":22.7490518,"lng":120.7282593},"903":{"city":"屏東縣","town":"瑪家鄉","lat":22.7086763,"lng":120.6494041},"904":{"city":"屏東縣","town":"九如鄉","lat":22.740429,"lng":120.4903298},"905":{"city":"屏東縣","town":"里港鄉","lat":22.7792625,"lng":120.4944974},"906":{"city":"屏東縣","town":"高樹鄉","lat":22.8267314,"lng":120.600241},"907":{"city":"屏東縣","town":"鹽埔鄉","lat":22.7543743,"lng":120.5727019},"908":{"city":"屏東縣","town":"長治鄉","lat":22.676538,"lng":120.5272963},"909":{"city":"屏東縣","town":"麟洛鄉","lat":22.6506473,"lng":120.5272056},"911":{"city":"屏東縣","town":"竹田鄉","lat":22.584724,"lng":120.543981},"912":{"city":"屏東縣","town":"內埔鄉","lat":22.6120045,"lng":120.5668293},"913":{"city":"屏東縣","town":"萬丹鄉","lat":22.5894894,"lng":120.4850182},"920":{"city":"屏東縣","town":"潮州鎮","lat":22.549845,"lng":120.5429633},"921":{"city":"屏東縣","town":"泰武鄉","lat":22.5919045,"lng":120.6319498},"922":{"city":"屏東縣","town":"來義鄉","lat":22.5261844,"lng":120.6315782},"923":{"city":"屏東縣","town":"萬巒鄉","lat":22.5726416,"lng":120.567841},"924":{"city":"屏東縣","town":"崁頂鄉","lat":22.5147343,"lng":120.5140493},"925":{"city":"屏東縣","town":"新埤鄉","lat":22.4701881,"lng":120.5498736},"926":{"city":"屏東縣","town":"南州鄉","lat":22.490404,"lng":120.509879},"927":{"city":"屏東縣","town":"林邊鄉","lat":22.431504,"lng":120.5097562},"928":{"city":"屏東縣","town":"東港鎮","lat":22.4666854,"lng":120.454361},"929":{"city":"屏東縣","town":"琉球鄉","lat":22.348635,"lng":120.3827309},"931":{"city":"屏東縣","town":"佳冬鄉","lat":22.419209,"lng":120.5524196},"932":{"city":"屏東縣","town":"新園鄉","lat":22.5438351,"lng":120.4614914},"940":{"city":"屏東縣","town":"枋寮鄉","lat":22.3655097,"lng":120.5934906},"941":{"city":"屏東縣","town":"枋山鄉","lat":22.2639616,"lng":120.6524803},"942":{"city":"屏東縣","town":"春日鄉","lat":22.3710005,"lng":120.6290908},"943":{"city":"屏東縣","town":"獅子鄉","lat":22.201775,"lng":120.705438},"944":{"city":"屏東縣","town":"車城鄉","lat":22.0739409,"lng":120.714276},"945":{"city":"屏東縣","town":"牡丹鄉","lat":22.1261502,"lng":120.7743059},"946":{"city":"屏東縣","town":"恆春鎮","lat":22.0037401,"lng":120.7472461},"947":{"city":"屏東縣","town":"滿州鄉","lat":22.020813,"lng":120.838632},"950":{"city":"臺東縣","town":"臺東市","lat":22.7548208,"lng":121.1465131},"951":{"city":"臺東縣","town":"綠島鄉","lat":22.6658421,"lng":121.4705314},"952":{"city":"臺東縣","town":"蘭嶼鄉","lat":22.0244984,"lng":121.5560627},"953":{"city":"臺東縣","town":"延平鄉","lat":22.9025753,"lng":121.0860671},"954":{"city":"臺東縣","town":"卑南鄉","lat":22.7827393,"lng":121.0870294},"955":{"city":"臺東縣","town":"鹿野鄉","lat":22.9393083,"lng":121.1519859},"956":{"city":"臺東縣","town":"關山鎮","lat":23.0474453,"lng":121.1630554},"957":{"city":"臺東縣","town":"海端鄉","lat":23.102057,"lng":121.176541},"958":{"city":"臺東縣","town":"池上鄉","lat":23.1223101,"lng":121.2151887},"959":{"city":"臺東縣","town":"東河鄉","lat":22.9689404,"lng":121.3028937},"961":{"city":"臺東縣","town":"成功鎮","lat":23.1050697,"lng":121.3808747},"962":{"city":"臺東縣","town":"長濱鄉","lat":23.3149961,"lng":121.4514207},"963":{"city":"臺東縣","town":"太麻里鄉","lat":22.615548,"lng":121.007607},"964":{"city":"臺東縣","town":"金峰鄉","lat":22.5946397,"lng":120.9607096},"965":{"city":"臺東縣","town":"大武鄉","lat":22.340518,"lng":120.890073},"966":{"city":"臺東縣","town":"達仁鄉","lat":22.296818,"lng":120.882973},"970":{"city":"花蓮縣","town":"花蓮市","lat":23.9820651,"lng":121.6067705},"971":{"city":"花蓮縣","town":"新城鄉","lat":24.0392994,"lng":121.6041173},"972":{"city":"花蓮縣","town":"秀林鄉","lat":24.1185835,"lng":121.6248326},"973":{"city":"花蓮縣","town":"吉安鄉","lat":23.9729455,"lng":121.5636438},"974":{"city":"花蓮縣","town":"壽豐鄉","lat":23.8703424,"lng":121.5088259},"975":{"city":"花蓮縣","town":"鳳林鎮","lat":23.7447637,"lng":121.4515822},"976":{"city":"花蓮縣","town":"光復鄉","lat":23.669342,"lng":121.4233065},"977":{"city":"花蓮縣","town":"豐濱鄉","lat":23.6012024,"lng":121.5211488},"978":{"city":"花蓮縣","town":"瑞穗鄉","lat":23.4964553,"lng":121.3757788},"979":{"city":"花蓮縣","town":"萬榮鄉","lat":23.714875,"lng":121.4109617},"981":{"city":"花蓮縣","town":"玉里鎮","lat":23.335527,"lng":121.315197},"982":{"city":"花蓮縣","town":"卓溪鄉","lat":23.346478,"lng":121.303451},"983":{"city":"花蓮縣","town":"富里鄉","lat":23.1794845,"lng":121.250233}}